,City,Lat,Lng,Max Temp,Humidity,Cloudiness,Wind Speed,Country,Date
0,Punta Arenas,-53.15,-70.92,55.4,58,75,8.05,CL,1970-01-01 00:00:01.604345943
1,Basco,20.45,121.97,79.34,76,100,29.28,PH,1970-01-01 00:00:01.604346485
2,Lavrentiya,65.58,-171.0,19.53,87,0,3.91,RU,1970-01-01 00:00:01.604346486
3,Arraial do Cabo,-22.97,-42.03,73.4,69,20,9.17,BR,1970-01-01 00:00:01.604346048
4,Faanui,-16.48,-151.75,79.34,79,2,16.33,PF,1970-01-01 00:00:01.604346489
5,Vaini,-21.2,-175.2,75.2,88,75,9.17,TO,1970-01-01 00:00:01.604346133
6,Nanortalik,60.14,-45.24,30.09,87,91,7.9,GL,1970-01-01 00:00:01.604346331
7,Homer,59.64,-151.55,26.01,23,90,12.75,US,1970-01-01 00:00:01.604346492
8,Formosa,-26.18,-58.18,87.8,31,90,6.93,AR,1970-01-01 00:00:01.604346493
9,Esperance,-33.87,121.9,57.2,93,90,14.99,AU,1970-01-01 00:00:01.604346135
10,Ponta do Sol,32.67,-17.1,71.6,64,75,8.05,PT,1970-01-01 00:00:01.604346495
11,Rawson,-43.3,-65.1,79.84,22,100,12.75,AR,1970-01-01 00:00:01.604346496
12,Taltal,-25.4,-70.48,64.13,57,22,7.49,CL,1970-01-01 00:00:01.604346497
13,Albany,42.6,-73.97,37.0,59,0,5.99,US,1970-01-01 00:00:01.604346133
14,Córdoba,-31.41,-64.18,87.01,25,0,11.41,AR,1970-01-01 00:00:01.604346474
15,Invermere,50.52,-116.04,47.84,51,100,5.1,CA,1970-01-01 00:00:01.604346501
16,Rikitea,-23.12,-134.97,72.21,81,7,19.01,PF,1970-01-01 00:00:01.604346502
17,Ushuaia,-54.8,-68.3,59.0,58,20,3.36,AR,1970-01-01 00:00:01.604346124
18,Kapaa,22.08,-159.32,75.2,94,40,5.82,US,1970-01-01 00:00:01.604346506
19,São Félix do Xingu,-6.64,-51.99,82.56,81,89,1.59,BR,1970-01-01 00:00:01.604346507
20,Port Alfred,-33.59,26.89,67.12,79,47,21.34,ZA,1970-01-01 00:00:01.604346126
21,Puerto Palomas,31.77,-107.62,69.8,26,1,8.05,MX,1970-01-01 00:00:01.604346510
22,Vanavara,60.34,102.28,28.96,98,100,8.46,RU,1970-01-01 00:00:01.604346511
23,Saskylakh,71.92,114.08,5.0,93,98,7.36,RU,1970-01-01 00:00:01.604346074
24,Morondava,-20.28,44.28,76.87,79,0,8.9,MG,1970-01-01 00:00:01.604346514
25,Porto-Novo,6.5,2.6,80.6,83,20,2.24,BJ,1970-01-01 00:00:01.604346515
26,Upernavik,72.79,-56.15,17.13,92,100,8.28,GL,1970-01-01 00:00:01.604346516
27,Fortuna,40.6,-124.16,69.01,51,1,5.37,US,1970-01-01 00:00:01.604346517
28,Mar del Plata,-38.0,-57.56,66.2,55,90,12.75,AR,1970-01-01 00:00:01.604346300
29,Busselton,-33.65,115.33,55.99,84,78,11.23,AU,1970-01-01 00:00:01.604346130
30,Huarmey,-10.07,-78.15,68.02,64,100,8.1,PE,1970-01-01 00:00:01.604346521
31,Wukari,7.85,9.78,80.85,39,100,3.24,NG,1970-01-01 00:00:01.604346522
32,Puerto Ayora,-0.74,-90.35,77.0,69,75,6.93,EC,1970-01-01 00:00:01.604346128
33,Praia,14.92,-23.51,84.2,42,0,9.17,CV,1970-01-01 00:00:01.604346524
34,Karratha,-20.74,116.85,66.72,52,0,9.82,AU,1970-01-01 00:00:01.604346525
35,Bluff,-46.6,168.33,48.99,90,37,1.01,NZ,1970-01-01 00:00:01.604346129
36,Taganak,6.08,118.3,75.2,94,20,3.36,PH,1970-01-01 00:00:01.604346527
37,College,64.86,-147.8,-9.4,76,90,4.7,US,1970-01-01 00:00:01.604346377
38,Kailua,21.4,-157.74,80.6,69,20,10.29,US,1970-01-01 00:00:01.604346530
39,Jamestown,42.1,-79.24,36.0,69,90,17.22,US,1970-01-01 00:00:01.604346136
40,Bredasdorp,-34.53,20.04,66.2,82,21,12.75,ZA,1970-01-01 00:00:01.604346131
41,Oranjestad,12.52,-70.03,86.0,74,40,12.75,AW,1970-01-01 00:00:01.604346376
42,Laguna,38.42,-121.42,77.0,30,1,3.8,US,1970-01-01 00:00:01.604346426
43,Menongue,-14.66,17.69,69.55,58,15,1.86,AO,1970-01-01 00:00:01.604346536
44,Mataura,-46.19,168.86,48.99,90,94,1.01,NZ,1970-01-01 00:00:01.604346048
45,Port-Gentil,-0.72,8.78,78.8,88,20,8.05,GA,1970-01-01 00:00:01.604346540
46,Atasū,48.68,71.64,32.63,94,0,6.42,KZ,1970-01-01 00:00:01.604346541
47,East London,-33.02,27.91,67.55,83,77,15.61,ZA,1970-01-01 00:00:01.604346542
48,Sol'-Iletsk,51.16,54.99,43.63,62,52,6.67,RU,1970-01-01 00:00:01.604346543
49,Clyde River,70.47,-68.59,8.6,92,40,20.8,CA,1970-01-01 00:00:01.604346545
50,Puerto Madryn,-42.77,-65.04,86.99,18,100,26.24,AR,1970-01-01 00:00:01.604346408
51,Bobo-Dioulasso,11.18,-4.3,84.2,54,3,2.15,BF,1970-01-01 00:00:01.604346548
52,Big Spring,32.25,-101.48,71.01,32,1,9.17,US,1970-01-01 00:00:01.604346549
53,Manado,1.49,124.85,77.0,88,20,2.24,ID,1970-01-01 00:00:01.604346550
54,Waren,53.52,12.68,64.0,71,78,3.0,DE,1970-01-01 00:00:01.604346552
55,Dongying,37.46,118.49,41.74,56,0,7.72,CN,1970-01-01 00:00:01.604346553
56,Khorixas,-20.37,14.97,66.47,31,0,10.89,NA,1970-01-01 00:00:01.604346554
57,Caravelas,-17.71,-39.25,72.84,74,87,12.03,BR,1970-01-01 00:00:01.604346556
58,Khatanga,71.97,102.5,12.29,96,100,8.3,RU,1970-01-01 00:00:01.604346126
59,Huilong,31.81,121.66,62.01,84,0,15.05,CN,1970-01-01 00:00:01.604346559
60,Barrow,71.29,-156.79,28.4,74,90,16.11,US,1970-01-01 00:00:01.604346046
61,Soyo,-6.13,12.37,78.51,86,83,7.94,AO,1970-01-01 00:00:01.604346561
62,Tourlaville,49.64,-1.57,53.01,71,20,14.99,FR,1970-01-01 00:00:01.604346562
63,Souillac,-20.52,57.52,71.6,68,75,5.82,MU,1970-01-01 00:00:01.604345905
64,Hornepayne,49.21,-84.77,35.08,83,100,14.29,CA,1970-01-01 00:00:01.604346564
65,Kīhei,20.79,-156.47,82.4,65,40,16.11,US,1970-01-01 00:00:01.604346403
66,Thompson,55.74,-97.86,21.2,85,90,4.7,CA,1970-01-01 00:00:01.604346567
67,Vardø,70.37,31.11,39.2,86,75,26.4,NO,1970-01-01 00:00:01.604346128
68,Longyearbyen,78.22,15.64,35.6,74,75,43.62,SJ,1970-01-01 00:00:01.604346569
69,Sokoto,13.06,5.24,82.33,25,66,7.23,NG,1970-01-01 00:00:01.604346570
70,Okhotsk,59.38,143.3,30.15,94,100,24.14,RU,1970-01-01 00:00:01.604346571
71,Flin Flon,54.77,-101.86,37.4,86,75,2.24,CA,1970-01-01 00:00:01.604346572
72,Port Macquarie,-31.43,152.92,57.99,79,70,1.01,AU,1970-01-01 00:00:01.604346573
73,Bud,39.45,-86.18,48.2,26,1,9.17,US,1970-01-01 00:00:01.604346574
74,Nome,64.5,-165.41,6.8,77,75,4.7,US,1970-01-01 00:00:01.604346576
75,Puerto Escondido,15.85,-97.07,87.89,52,100,5.17,MX,1970-01-01 00:00:01.604346577
76,Tarakan,3.3,117.63,80.38,81,100,7.25,ID,1970-01-01 00:00:01.604346465
77,Bethel,41.37,-73.41,41.0,38,1,17.22,US,1970-01-01 00:00:01.604346580
78,Hithadhoo,-0.6,73.08,83.23,74,75,11.39,MV,1970-01-01 00:00:01.604346582
79,Buenos Aires,-34.61,-58.38,72.0,43,0,13.87,AR,1970-01-01 00:00:01.604346183
80,Castro,-24.79,-50.01,68.13,47,13,4.38,BR,1970-01-01 00:00:01.604346131
81,Pauini,-7.71,-66.98,89.28,53,100,2.48,BR,1970-01-01 00:00:01.604346586
82,Visby,57.64,18.3,59.0,93,100,23.04,SE,1970-01-01 00:00:01.604346587
83,Iqaluit,63.75,-68.51,17.6,67,75,17.22,CA,1970-01-01 00:00:01.604346375
84,Saint-Philippe,-21.36,55.77,73.4,53,90,8.05,RE,1970-01-01 00:00:01.604346127
85,Sangīn,32.07,64.84,48.15,39,0,1.28,AF,1970-01-01 00:00:01.604346590
86,Bengkulu,-3.8,102.27,75.29,88,100,4.72,ID,1970-01-01 00:00:01.604346296
87,Båtsfjord,70.63,29.72,35.6,86,75,26.4,NO,1970-01-01 00:00:01.604346592
88,Talnakh,69.49,88.4,15.8,92,40,2.24,RU,1970-01-01 00:00:01.604346129
89,Phan Thiet,10.93,108.1,75.65,83,100,3.33,VN,1970-01-01 00:00:01.604346595
90,La Ronge,55.1,-105.28,48.2,61,87,3.36,CA,1970-01-01 00:00:01.604346596
91,Rivadavia,-33.19,-68.46,90.91,11,0,15.93,AR,1970-01-01 00:00:01.604346597
92,New Norfolk,-42.78,147.06,62.01,54,98,3.22,AU,1970-01-01 00:00:01.604346124
93,Diamantino,-14.41,-56.45,89.4,42,74,5.32,BR,1970-01-01 00:00:01.604346599
94,Hong Kong,22.29,114.16,73.0,69,45,1.01,HK,1970-01-01 00:00:01.604346536
95,Tazovsky,67.47,78.7,19.15,98,99,12.48,RU,1970-01-01 00:00:01.604346601
96,Hilo,19.73,-155.09,81.0,65,90,1.9,US,1970-01-01 00:00:01.604345981
97,Tawao,4.25,117.89,77.0,94,20,3.2,MY,1970-01-01 00:00:01.604346604
98,Tuatapere,-46.13,167.68,48.99,90,94,1.01,NZ,1970-01-01 00:00:01.604346339
99,Tuktoyaktuk,69.45,-133.04,6.8,77,90,13.87,CA,1970-01-01 00:00:01.604346606
100,Palencia,42.42,-4.5,60.01,80,99,3.0,ES,1970-01-01 00:00:01.604346607
101,Belz,47.68,-3.17,51.01,77,0,7.4,FR,1970-01-01 00:00:01.604346608
102,Iracoubo,5.48,-53.2,79.84,81,100,14.03,GF,1970-01-01 00:00:01.604346609
103,Avanigadda,16.02,80.92,76.19,84,3,3.78,IN,1970-01-01 00:00:01.604346611
104,Santa Inês,-3.67,-45.38,91.71,47,54,3.44,BR,1970-01-01 00:00:01.604346612
105,Petropavlovsk-Kamchatskiy,53.05,158.65,39.2,93,40,8.95,RU,1970-01-01 00:00:01.604346614
106,Morros,-9.45,-46.3,75.6,80,90,7.29,BR,1970-01-01 00:00:01.604346334
107,Muros,42.78,-9.06,51.01,92,49,5.23,ES,1970-01-01 00:00:01.604346617
108,Amuntai,-2.42,115.25,73.06,97,35,1.3,ID,1970-01-01 00:00:01.604346618
109,Ranong,9.97,98.63,77.61,84,72,5.03,TH,1970-01-01 00:00:01.604346459
110,Codrington,-38.27,141.97,61.63,57,96,11.95,AU,1970-01-01 00:00:01.604346329
111,Port Blair,11.67,92.75,80.13,82,100,4.76,IN,1970-01-01 00:00:01.604346621
112,Hermanus,-34.42,19.23,64.99,83,1,8.01,ZA,1970-01-01 00:00:01.604346132
113,Aloja,57.77,24.88,46.0,92,100,5.01,LV,1970-01-01 00:00:01.604346624
114,Emerald,-23.53,148.17,71.6,83,90,12.75,AU,1970-01-01 00:00:01.604346625
115,Alberton,46.82,-64.07,48.2,100,80,16.11,CA,1970-01-01 00:00:01.604346626
116,Ucar,40.52,47.65,64.4,82,40,4.7,AZ,1970-01-01 00:00:01.604346627
117,Port Lincoln,-34.73,135.87,73.38,28,77,19.48,AU,1970-01-01 00:00:01.604346628
118,Sorong,-0.88,131.25,77.29,85,100,0.76,ID,1970-01-01 00:00:01.604346629
119,Tezu,27.92,96.17,68.4,85,18,3.02,IN,1970-01-01 00:00:01.604346630
120,Saint Paul Harbor,57.79,-152.41,26.6,53,1,17.22,US,1970-01-01 00:00:01.604346631
121,Klaksvík,62.23,-6.59,42.8,87,0,16.11,FO,1970-01-01 00:00:01.604346633
122,Coquimbo,-29.95,-71.34,59.0,77,75,12.75,CL,1970-01-01 00:00:01.604346634
123,Sa Kaeo,13.75,102.33,72.57,82,14,4.97,TH,1970-01-01 00:00:01.604346635
124,Adrar,20.5,-10.07,84.74,14,100,9.6,MR,1970-01-01 00:00:01.604346636
125,Yellowknife,62.46,-114.35,6.8,77,90,10.29,CA,1970-01-01 00:00:01.604346126
126,Lüderitz,-26.65,15.16,61.47,87,97,6.69,NA,1970-01-01 00:00:01.604346639
127,Padang,-0.95,100.35,77.56,75,100,3.8,ID,1970-01-01 00:00:01.604346640
128,Herat Province,34.5,62.0,51.98,44,0,4.97,AF,1970-01-01 00:00:01.604346641
129,Northam,51.03,-4.22,50.0,75,0,10.0,GB,1970-01-01 00:00:01.604346642
130,Hobart,-42.88,147.33,62.01,63,0,8.05,AU,1970-01-01 00:00:01.604346634
131,Avarua,-21.21,-159.78,71.6,83,100,5.82,CK,1970-01-01 00:00:01.604346644
132,Iskateley,67.68,53.15,32.25,95,100,15.7,RU,1970-01-01 00:00:01.604346645
133,Torbay,47.67,-52.73,54.0,100,90,35.57,CA,1970-01-01 00:00:01.604346646
134,Jaroměř,50.36,15.92,64.0,97,98,6.31,CZ,1970-01-01 00:00:01.604346512
135,Kudahuvadhoo,2.67,72.89,82.24,74,84,9.42,MV,1970-01-01 00:00:01.604346650
136,Cherskiy,68.75,161.3,-4.59,91,100,12.24,RU,1970-01-01 00:00:01.604346651
137,Oktyabr'skiy,54.48,53.47,32.22,96,72,4.18,RU,1970-01-01 00:00:01.604346652
138,San Cristobal,7.77,-72.22,74.68,85,100,0.78,VE,1970-01-01 00:00:01.604346653
139,Kousséri,12.08,15.03,80.6,47,91,3.36,CM,1970-01-01 00:00:01.604346654
140,Launceston,-41.45,147.17,57.0,87,75,8.05,AU,1970-01-01 00:00:01.604346655
141,Rocha,-34.48,-54.33,64.58,65,16,9.37,UY,1970-01-01 00:00:01.604346656
142,Port Hawkesbury,45.62,-61.35,53.6,66,1,31.09,CA,1970-01-01 00:00:01.604346435
143,Jeremoabo,-10.07,-38.48,76.89,79,100,5.99,BR,1970-01-01 00:00:01.604346659
144,Severo-Kuril'sk,50.68,156.12,43.3,82,100,23.13,RU,1970-01-01 00:00:01.604346660
145,Tombouctou,20.0,-3.0,86.83,14,100,6.89,ML,1970-01-01 00:00:01.604346661
146,Belyy Yar,53.6,91.39,37.4,86,75,3.33,RU,1970-01-01 00:00:01.604346662
147,Nikolskoye,59.7,30.79,41.0,86,90,13.42,RU,1970-01-01 00:00:01.604346129
148,Laas,46.62,10.7,46.4,87,5,1.12,IT,1970-01-01 00:00:01.604346664
149,Eureka,40.8,-124.16,69.01,81,1,6.24,US,1970-01-01 00:00:01.604346638
150,Oistins,13.07,-59.53,86.0,66,40,18.34,BB,1970-01-01 00:00:01.604346432
151,Atuona,-9.8,-139.03,77.5,76,26,20.22,PF,1970-01-01 00:00:01.604346049
152,Saint-Louis,16.33,-15.0,90.84,12,100,5.21,SN,1970-01-01 00:00:01.604346671
153,Acaraú,-2.89,-40.12,82.81,71,0,15.57,BR,1970-01-01 00:00:01.604346466
154,Tambura,5.6,27.47,71.22,90,100,2.48,SS,1970-01-01 00:00:01.604346675
155,Tasiilaq,65.61,-37.64,23.0,57,0,5.82,GL,1970-01-01 00:00:01.604346676
156,Jalu,29.03,21.55,66.87,55,0,7.7,LY,1970-01-01 00:00:01.604346677
157,Terra Santa,-2.1,-56.49,88.81,56,95,3.56,BR,1970-01-01 00:00:01.604346679
158,Choma,-16.81,26.95,70.02,44,87,2.3,ZM,1970-01-01 00:00:01.604346680
159,Limulunga,-15.1,23.14,79.39,34,29,6.55,ZM,1970-01-01 00:00:01.604346682
160,Chui,-33.7,-53.46,64.67,66,46,8.88,UY,1970-01-01 00:00:01.604346684
161,Yangi Marg`ilon,40.43,71.72,44.6,39,0,6.93,UZ,1970-01-01 00:00:01.604346687
162,Ancud,-41.87,-73.82,57.99,71,75,6.93,CL,1970-01-01 00:00:01.604346688
163,Hay River,60.82,-115.8,19.4,79,100,6.93,CA,1970-01-01 00:00:01.604346689
164,Chizhou,30.66,117.48,51.57,56,0,5.26,CN,1970-01-01 00:00:01.604346691
165,Narsaq,60.92,-46.05,23.0,49,75,8.05,GL,1970-01-01 00:00:01.604346692
166,Abu Kamal,34.45,40.92,68.47,34,50,7.16,SY,1970-01-01 00:00:01.604346693
167,Departamento de Maldonado,-34.67,-54.92,68.0,64,20,11.41,UY,1970-01-01 00:00:01.604346694
168,Lompoc,34.64,-120.46,75.2,53,1,16.11,US,1970-01-01 00:00:01.604346695
169,Pātrasāer,23.22,87.52,73.6,61,0,5.88,IN,1970-01-01 00:00:01.604346696
170,Lashio,22.93,97.75,64.38,99,13,0.22,MM,1970-01-01 00:00:01.604346698
171,Constitución,-35.33,-72.42,60.89,70,57,11.27,CL,1970-01-01 00:00:01.604346656
172,Grindavik,63.84,-22.43,39.2,86,75,24.16,IS,1970-01-01 00:00:01.604346700
173,Chapais,49.78,-74.85,21.2,73,90,12.75,CA,1970-01-01 00:00:01.604346701
174,Viçosa,-20.75,-42.88,67.01,70,62,8.97,BR,1970-01-01 00:00:01.604346516
175,Sørland,67.67,12.69,46.4,93,75,9.17,NO,1970-01-01 00:00:01.604346703
176,Atar,20.52,-13.05,85.6,15,100,10.02,MR,1970-01-01 00:00:01.604346705
177,Burnie,-41.07,145.92,55.99,83,96,4.0,AU,1970-01-01 00:00:01.604346707
178,Acapulco de Juárez,16.86,-99.89,86.0,74,20,12.75,MX,1970-01-01 00:00:01.604346544
179,Geraldton,-28.77,114.6,59.0,93,75,8.05,AU,1970-01-01 00:00:01.604346709
180,Quatre Cocos,-20.21,57.76,71.6,68,75,5.82,MU,1970-01-01 00:00:01.604346710
181,Nueva Imperial,-38.73,-72.95,59.0,82,75,5.82,CL,1970-01-01 00:00:01.604346711
182,Airai,-8.93,125.41,61.2,65,74,1.63,TL,1970-01-01 00:00:01.604346712
183,Uppsala County,60.0,17.75,59.0,100,90,16.11,SE,1970-01-01 00:00:01.604346713
184,Soe,-9.86,124.28,66.69,85,76,3.58,ID,1970-01-01 00:00:01.604346715
185,Pangai,-19.8,-174.35,77.0,94,75,18.34,TO,1970-01-01 00:00:01.604346716
186,Vale da Amoreira,39.07,-7.7,64.0,91,100,1.01,PT,1970-01-01 00:00:01.604346717
187,Verkhnevilyuysk,63.45,120.32,5.34,88,100,8.3,RU,1970-01-01 00:00:01.604346718
188,Boli,45.77,130.52,22.26,90,85,13.71,CN,1970-01-01 00:00:01.604346719
189,Alofi,-19.06,-169.92,77.0,94,75,14.99,NU,1970-01-01 00:00:01.604346720
190,Porbandar,21.64,69.61,79.3,41,0,8.43,IN,1970-01-01 00:00:01.604346722
191,Terrace Bay,48.78,-87.1,41.0,64,75,9.17,CA,1970-01-01 00:00:01.604346723
192,George Town,5.41,100.34,78.8,88,20,1.12,MY,1970-01-01 00:00:01.604346130
193,Havelock,34.88,-76.9,53.6,32,1,18.34,US,1970-01-01 00:00:01.604346726
194,Finnsnes,69.23,17.98,41.0,87,75,17.22,NO,1970-01-01 00:00:01.604346727
195,Bambous Virieux,-20.34,57.76,71.6,68,75,5.82,MU,1970-01-01 00:00:01.604346729
196,Križevci,46.02,16.54,55.99,87,0,3.06,HR,1970-01-01 00:00:01.604346730
197,Parabel',58.7,81.48,30.25,98,100,6.6,RU,1970-01-01 00:00:01.604346731
198,Tateyama,34.98,139.87,60.8,93,75,8.05,JP,1970-01-01 00:00:01.604346732
199,Butaritari,3.07,172.79,81.0,75,51,17.52,KI,1970-01-01 00:00:01.604346733
200,Fort Nelson,58.81,-122.7,10.4,78,90,4.79,CA,1970-01-01 00:00:01.604346734
201,Nioro,13.35,-15.75,84.97,33,99,3.29,GM,1970-01-01 00:00:01.604346736
202,Sterling,39.01,-77.43,48.99,34,20,20.8,US,1970-01-01 00:00:01.604346450
203,Ostrovnoy,68.05,39.51,35.1,83,96,32.1,RU,1970-01-01 00:00:01.604346738
204,Santa Maria,-29.68,-53.81,73.27,45,2,7.85,BR,1970-01-01 00:00:01.604346626
205,Saint George,37.1,-113.58,64.4,22,75,4.7,US,1970-01-01 00:00:01.604346473
206,Olavarría,-36.89,-60.32,75.0,47,0,5.01,AR,1970-01-01 00:00:01.604346743
207,Nehe,48.48,124.83,18.55,82,18,9.55,CN,1970-01-01 00:00:01.604346744
208,Pucallpa,-8.38,-74.55,87.8,55,40,3.36,PE,1970-01-01 00:00:01.604346611
209,Worthington,40.09,-83.02,46.99,33,1,11.41,US,1970-01-01 00:00:01.604346676
210,Peniche,39.36,-9.38,60.01,90,100,8.01,PT,1970-01-01 00:00:01.604346747
211,Zhigansk,66.77,123.37,-1.16,91,100,21.7,RU,1970-01-01 00:00:01.604346748
212,Cidreira,-30.18,-50.21,65.86,56,0,8.95,BR,1970-01-01 00:00:01.604346749
213,Opuwo,-18.06,13.84,70.88,22,33,8.12,NA,1970-01-01 00:00:01.604346751
214,Cape Town,-33.93,18.42,70.0,77,0,14.99,ZA,1970-01-01 00:00:01.604346639
215,Kavieng,-2.57,150.8,82.87,73,14,4.07,PG,1970-01-01 00:00:01.604346753
216,São Joaquim,-28.29,-49.93,56.19,77,71,5.75,BR,1970-01-01 00:00:01.604346754
217,Dunedin,-45.87,170.5,52.0,74,100,21.99,NZ,1970-01-01 00:00:01.604346755
218,Rio Grande,-32.03,-52.1,71.6,56,40,11.41,BR,1970-01-01 00:00:01.604346756
219,Kamina,-8.74,24.99,64.4,91,100,5.84,CD,1970-01-01 00:00:01.604346757
220,Tiksi,71.69,128.87,0.01,90,99,4.85,RU,1970-01-01 00:00:01.604346758
221,Vestmanna,62.16,-7.17,42.8,87,10,16.11,FO,1970-01-01 00:00:01.604346760
222,Yavoriv,49.94,23.38,48.0,100,90,4.47,UA,1970-01-01 00:00:01.604346761
223,Kashgar,39.45,75.98,42.8,38,20,8.95,CN,1970-01-01 00:00:01.604346762
224,Ribeira Grande,38.52,-28.7,62.6,63,75,9.17,PT,1970-01-01 00:00:01.604346763
225,Carnarvon,-24.87,113.63,66.2,72,40,13.87,AU,1970-01-01 00:00:01.604346764
226,Krugersdorp,-26.09,27.78,63.0,72,64,2.86,ZA,1970-01-01 00:00:01.604346765
227,Pahrump,36.21,-115.98,84.99,11,1,1.99,US,1970-01-01 00:00:01.604346766
228,Nabire,-3.37,135.48,76.06,90,84,2.53,ID,1970-01-01 00:00:01.604346769
229,Aswān,24.09,32.91,73.38,41,0,13.22,EG,1970-01-01 00:00:01.604346547
230,Strezhevoy,60.73,77.59,28.4,92,75,6.71,RU,1970-01-01 00:00:01.604346771
231,Katsuura,35.13,140.3,60.8,93,75,8.05,JP,1970-01-01 00:00:01.604346772
232,Batagay-Alyta,67.8,130.41,-9.31,82,94,2.59,RU,1970-01-01 00:00:01.604346773
233,Nouadhibou,20.93,-17.03,73.4,60,7,11.41,MR,1970-01-01 00:00:01.604346774
234,Hofn,64.25,-15.21,41.0,48,75,10.29,IS,1970-01-01 00:00:01.604346775
235,Saiha,22.48,92.97,68.2,93,89,1.81,IN,1970-01-01 00:00:01.604346776
236,Pimentel,-6.84,-79.93,73.4,56,0,18.34,PE,1970-01-01 00:00:01.604346777
237,Umm Kaddadah,13.6,26.69,84.11,23,4,20.85,SD,1970-01-01 00:00:01.604346779
238,Bulungu,-4.55,18.6,71.69,96,99,2.04,CD,1970-01-01 00:00:01.604346780
239,Rovaniemi,66.5,25.72,41.0,100,90,21.92,FI,1970-01-01 00:00:01.604346781
240,Bowling Green,36.99,-86.44,53.01,27,1,5.82,US,1970-01-01 00:00:01.604346782
241,Marrakesh,31.63,-8.01,75.2,41,20,4.7,MA,1970-01-01 00:00:01.604346770
242,Chokurdakh,70.63,147.92,-8.86,89,99,10.58,RU,1970-01-01 00:00:01.604346785
243,Dikson,73.51,80.55,15.91,97,100,10.25,RU,1970-01-01 00:00:01.604346787
244,Wollongong,-34.43,150.88,54.0,89,15,1.01,AU,1970-01-01 00:00:01.604346788
245,Provideniya,64.38,-173.3,30.2,74,75,11.18,RU,1970-01-01 00:00:01.604346789
246,Kandrian,-6.22,149.55,78.21,85,87,3.11,PG,1970-01-01 00:00:01.604346790
247,Miraflores,19.22,-98.81,64.4,33,5,14.99,MX,1970-01-01 00:00:01.604346791
248,Kommunar,59.62,30.39,42.01,86,90,11.18,RU,1970-01-01 00:00:01.604346792
249,São Filipe,14.9,-24.5,81.14,65,28,2.77,CV,1970-01-01 00:00:01.604346793
250,Cabo San Lucas,22.89,-109.91,88.0,58,20,6.93,MX,1970-01-01 00:00:01.604346794
251,Aiken,33.58,-81.6,59.0,26,1,8.05,US,1970-01-01 00:00:01.604346795
252,Dudinka,69.41,86.18,15.8,92,40,2.24,RU,1970-01-01 00:00:01.604346797
253,Aksarka,66.56,67.8,18.32,95,99,10.96,RU,1970-01-01 00:00:01.604346798
254,Lodwar,3.12,35.6,85.95,45,98,21.45,KE,1970-01-01 00:00:01.604346799
255,Buraidah,26.33,43.98,71.6,30,0,3.36,SA,1970-01-01 00:00:01.604346800
256,Daru,-9.08,143.21,80.24,86,100,13.04,PG,1970-01-01 00:00:01.604346801
257,Gimli,50.63,-96.99,42.8,75,0,6.93,CA,1970-01-01 00:00:01.604346758
258,Mandera,3.94,41.87,80.67,68,37,10.09,KE,1970-01-01 00:00:01.604346803
259,Plettenberg Bay,-34.05,23.37,64.58,87,0,5.79,ZA,1970-01-01 00:00:01.604346804
260,Ponta Delgada,37.73,-25.67,60.8,72,40,10.29,PT,1970-01-01 00:00:01.604346805
261,Naze,28.37,129.48,75.2,73,75,20.8,JP,1970-01-01 00:00:01.604346806
262,Collie,-33.37,116.15,55.99,84,54,4.16,AU,1970-01-01 00:00:01.604346808
263,Korla,41.76,86.15,37.27,70,1,1.61,CN,1970-01-01 00:00:01.604346809
264,Tirlyanskiy,54.21,58.58,31.55,96,0,1.39,RU,1970-01-01 00:00:01.604346810
265,Nuuk,64.18,-51.72,24.8,49,75,9.17,GL,1970-01-01 00:00:01.604346811
266,Riyadh,24.69,46.72,71.6,30,0,3.36,SA,1970-01-01 00:00:01.604346655
267,Buchanan,5.88,-10.05,78.33,87,100,5.68,LR,1970-01-01 00:00:01.604346813
268,Emilio Carranza,19.97,-96.61,71.82,70,85,21.16,MX,1970-01-01 00:00:01.604346814
269,Westport,41.14,-73.36,43.0,43,5,1.01,US,1970-01-01 00:00:01.604346815
270,Falam,22.92,93.68,58.03,100,98,1.74,MM,1970-01-01 00:00:01.604346818
271,Isangel,-19.55,169.27,76.46,86,100,17.56,VU,1970-01-01 00:00:01.604346819
272,Comodoro Rivadavia,-45.87,-67.5,73.4,46,0,1.12,AR,1970-01-01 00:00:01.604346820
273,Maxixe,-23.86,35.35,71.51,79,1,7.14,MZ,1970-01-01 00:00:01.604346821
274,Gizo Government Station,-8.1,156.84,83.41,73,40,2.08,SB,1970-01-01 00:00:01.604346823
275,Kargasok,59.06,80.86,29.19,98,100,5.91,RU,1970-01-01 00:00:01.604346824
276,Bentiu,9.23,29.83,77.54,71,0,4.36,SS,1970-01-01 00:00:01.604346827
277,Stalowa Wola,50.58,22.05,53.01,94,100,1.01,PL,1970-01-01 00:00:01.604346828
278,Itoman,26.12,127.67,77.0,78,75,26.4,JP,1970-01-01 00:00:01.604346829
279,Dombarovskiy,50.76,59.54,38.46,78,0,5.95,RU,1970-01-01 00:00:01.604346830
280,Terrace,54.52,-128.6,44.6,93,75,13.87,CA,1970-01-01 00:00:01.604346832
281,Kenai,60.55,-151.26,27.0,25,1,24.16,US,1970-01-01 00:00:01.604346834
282,Salalah,17.02,54.09,78.8,54,0,6.93,OM,1970-01-01 00:00:01.604346835
283,Micheweni,-4.97,39.83,78.39,78,45,11.52,TZ,1970-01-01 00:00:01.604346836
284,Vung Tau,10.35,107.08,79.2,80,91,5.08,VN,1970-01-01 00:00:01.604346837
285,Kachīry,53.07,76.1,34.3,85,100,6.2,KZ,1970-01-01 00:00:01.604346838
286,Namatanai,-3.67,152.43,80.71,79,5,3.85,PG,1970-01-01 00:00:01.604346839
287,Nyurba,63.28,118.33,7.99,85,100,7.99,RU,1970-01-01 00:00:01.604346840
288,Kutum,14.2,24.67,75.51,28,1,17.27,SD,1970-01-01 00:00:01.604346841
289,Sitka,57.05,-135.33,42.8,75,90,4.7,US,1970-01-01 00:00:01.604346843
290,Pevek,69.7,170.31,13.59,91,72,16.24,RU,1970-01-01 00:00:01.604346845
291,Harper,4.38,-7.72,78.35,86,76,4.23,LR,1970-01-01 00:00:01.604346846
292,Sortland,68.69,15.42,46.4,93,75,11.41,NO,1970-01-01 00:00:01.604346668
293,Half Moon Bay,37.46,-122.43,75.99,68,1,4.7,US,1970-01-01 00:00:01.604346848
294,Yerbogachën,61.28,108.01,23.2,97,100,9.64,RU,1970-01-01 00:00:01.604346849
295,Lebu,-37.62,-73.65,54.9,82,57,14.41,CL,1970-01-01 00:00:01.604346850
296,Shelburne,44.08,-80.2,37.0,78,100,27.07,CA,1970-01-01 00:00:01.604346851
297,San Policarpo,12.18,125.51,77.67,86,100,5.14,PH,1970-01-01 00:00:01.604346852
298,Vranje,42.55,21.9,55.0,79,100,0.76,RS,1970-01-01 00:00:01.604346855
299,Usinsk,65.99,57.53,32.61,96,100,17.69,RU,1970-01-01 00:00:01.604346856
300,Jiwani,25.05,61.74,73.83,66,0,8.19,PK,1970-01-01 00:00:01.604346857
301,Gaogou,34.02,119.19,46.38,51,0,7.2,CN,1970-01-01 00:00:01.604346859
302,Porta Westfalica,52.24,8.92,59.0,82,75,12.75,DE,1970-01-01 00:00:01.604346860
303,Moyobamba,-6.05,-76.97,85.55,44,100,2.73,PE,1970-01-01 00:00:01.604346861
304,Pinheiro,-2.52,-45.08,89.19,54,60,3.76,BR,1970-01-01 00:00:01.604346626
305,Turangi,-39.0,175.93,53.53,79,100,2.39,NZ,1970-01-01 00:00:01.604346864
306,Chicama,-7.84,-79.15,68.0,72,40,9.17,PE,1970-01-01 00:00:01.604346865
307,Weymouth,42.22,-70.94,41.0,44,100,18.34,US,1970-01-01 00:00:01.604346866
308,Sabha,27.04,14.43,65.08,45,0,7.92,LY,1970-01-01 00:00:01.604346867
309,Florence,43.77,11.25,61.0,93,75,4.7,IT,1970-01-01 00:00:01.604346868
310,Esim,4.87,-2.24,78.82,84,86,4.23,GH,1970-01-01 00:00:01.604346869
311,Kamenka,51.32,42.77,42.01,92,47,9.8,RU,1970-01-01 00:00:01.604346870
312,Bonavista,48.65,-53.11,53.01,100,100,17.22,CA,1970-01-01 00:00:01.604346873
313,Whitefish,48.41,-114.34,48.0,52,1,2.86,US,1970-01-01 00:00:01.604346874
314,Nexø,55.06,15.13,57.2,100,1,16.11,DK,1970-01-01 00:00:01.604346875
315,Portland,45.52,-122.68,63.0,50,20,4.7,US,1970-01-01 00:00:01.604346218
316,Aklavik,68.22,-135.01,3.2,77,100,5.82,CA,1970-01-01 00:00:01.604346877
317,Roald,62.58,6.13,48.2,70,40,13.87,NO,1970-01-01 00:00:01.604346878
318,Asău,46.43,26.4,48.99,79,100,4.81,RO,1970-01-01 00:00:01.604346879
319,Bonthe,7.53,-12.51,79.43,80,54,3.94,SL,1970-01-01 00:00:01.604346883
320,Karīmganj,24.87,92.35,72.99,94,94,2.84,IN,1970-01-01 00:00:01.604346884
321,Barcelos,41.54,-8.62,59.0,77,0,9.17,PT,1970-01-01 00:00:01.604346885
322,Miyako,39.64,141.95,53.98,74,100,4.5,JP,1970-01-01 00:00:01.604346886
323,Qaanaaq,77.48,-69.36,6.51,78,100,6.62,GL,1970-01-01 00:00:01.604346887
324,Lithgow,-33.48,150.15,46.99,92,0,0.54,AU,1970-01-01 00:00:01.604346888
325,Puksoozero,62.59,40.61,33.78,92,75,11.79,RU,1970-01-01 00:00:01.604346889
326,Havre-St-Pierre,50.23,-63.6,44.6,100,90,9.17,CA,1970-01-01 00:00:01.604346891
327,Alta Floresta,-9.88,-56.09,75.9,92,100,3.36,BR,1970-01-01 00:00:01.604346893
328,Mossamedes,-15.2,12.15,68.43,78,0,6.2,AO,1970-01-01 00:00:01.604346895
329,Norman Wells,65.28,-126.83,6.8,77,75,4.7,CA,1970-01-01 00:00:01.604346896
330,Faya,18.39,42.45,60.8,82,0,2.08,SA,1970-01-01 00:00:01.604346897
331,Flores,16.92,-89.9,77.86,78,92,4.9,GT,1970-01-01 00:00:01.604346898
332,Walvis Bay,-22.96,14.51,59.0,82,95,5.82,NA,1970-01-01 00:00:01.604346899
333,Popondetta,-8.75,148.25,76.21,83,38,2.64,PG,1970-01-01 00:00:01.604346901
334,Trairi,-3.28,-39.27,82.04,71,1,11.27,BR,1970-01-01 00:00:01.604346787
335,Oussouye,12.48,-16.55,87.8,74,0,2.24,SN,1970-01-01 00:00:01.604346904
336,Magomeni,-6.8,39.25,77.0,78,40,5.82,TZ,1970-01-01 00:00:01.604346906
337,Port Hedland,-20.32,118.57,71.6,88,9,11.41,AU,1970-01-01 00:00:01.604346907
338,St Albans,51.75,-0.33,48.99,70,0,20.8,GB,1970-01-01 00:00:01.604346908
339,Bystryy Istok,52.37,84.39,34.52,96,100,3.89,RU,1970-01-01 00:00:01.604346909
340,Henties Bay,-22.12,14.28,59.0,88,96,1.99,NA,1970-01-01 00:00:01.604346910
341,Tabuk,17.42,121.44,73.36,91,100,5.99,PH,1970-01-01 00:00:01.604346912
342,Kununurra,-15.77,128.73,75.2,83,42,1.12,AU,1970-01-01 00:00:01.604346913
343,Wau,7.7,28.0,76.17,77,83,3.85,SS,1970-01-01 00:00:01.604346915
344,Coahuayana Viejo,18.73,-103.68,84.2,39,40,23.04,MX,1970-01-01 00:00:01.604346916
345,San Juan Pueblo,15.58,-87.23,77.0,100,90,13.87,HN,1970-01-01 00:00:01.604346917
346,Hasaki,35.73,140.83,57.2,100,75,2.24,JP,1970-01-01 00:00:01.604346918
347,Pinega,64.7,43.39,30.69,93,0,12.71,RU,1970-01-01 00:00:01.604346919
348,Korāput,18.82,82.72,66.67,92,23,1.88,IN,1970-01-01 00:00:01.604346921
349,Qui Nhon,13.77,109.23,73.81,86,100,10.47,VN,1970-01-01 00:00:01.604346922
350,Great Yarmouth,52.61,1.73,51.01,82,21,1.99,GB,1970-01-01 00:00:01.604346923
351,Nhulunbuy,-12.23,136.77,73.4,88,83,5.64,AU,1970-01-01 00:00:01.604346918
352,Masunga,-20.62,27.45,75.2,53,40,6.93,BW,1970-01-01 00:00:01.604346925
353,Byron Bay,-28.65,153.62,60.8,72,83,11.41,AU,1970-01-01 00:00:01.604346926
354,Pizhanka,57.46,48.54,29.44,95,0,6.44,RU,1970-01-01 00:00:01.604346927
355,Shihezi,44.3,86.03,38.16,69,5,2.77,CN,1970-01-01 00:00:01.604346928
356,Poum,-20.23,164.02,77.14,78,100,6.08,NC,1970-01-01 00:00:01.604346930
357,Jiaozuo,35.24,113.23,50.41,40,26,3.24,CN,1970-01-01 00:00:01.604346932
358,Prince Rupert,54.32,-130.32,51.8,93,90,16.11,CA,1970-01-01 00:00:01.604346933
359,Boyolangu,-8.12,111.89,75.49,85,45,2.37,ID,1970-01-01 00:00:01.604346934
360,Safi,32.3,-9.24,67.95,79,0,13.38,MA,1970-01-01 00:00:01.604346935
361,Bubaque,11.28,-15.83,84.65,71,0,10.65,GW,1970-01-01 00:00:01.604346936
362,Cervo,43.67,-7.41,46.99,94,100,1.01,ES,1970-01-01 00:00:01.604346938
363,Vao,-22.67,167.48,74.5,91,100,8.61,NC,1970-01-01 00:00:01.604346939
364,Kaitangata,-46.28,169.85,55.0,66,50,5.01,NZ,1970-01-01 00:00:01.604346941
365,Broadstairs,51.36,1.44,51.01,68,0,3.0,GB,1970-01-01 00:00:01.604346942
366,Innisfail,-17.53,146.03,74.68,86,9,7.16,AU,1970-01-01 00:00:01.604346944
367,Burevestnik,56.14,43.79,37.4,93,90,4.47,RU,1970-01-01 00:00:01.604346945
368,San Fernando,15.03,120.69,75.2,94,40,2.24,PH,1970-01-01 00:00:01.604346947
369,Qasigiannguit,68.82,-51.19,23.0,73,40,12.75,GL,1970-01-01 00:00:01.604346948
370,Bilma,18.69,12.92,74.52,21,0,8.3,NE,1970-01-01 00:00:01.604346949
371,Dickinson,29.46,-95.05,72.0,28,1,6.93,US,1970-01-01 00:00:01.604346950
372,Egvekinot,66.32,-179.17,10.8,87,72,1.41,RU,1970-01-01 00:00:01.604346951
373,Lae,-6.72,146.98,77.34,76,98,6.87,PG,1970-01-01 00:00:01.604346953
374,Marawi,8.0,124.29,73.0,91,100,5.99,PH,1970-01-01 00:00:01.604346954
375,Fairlie,55.76,-4.86,46.0,90,100,5.01,GB,1970-01-01 00:00:01.604346955
376,Tchamba,9.03,1.42,78.55,55,86,2.19,TG,1970-01-01 00:00:01.604346956
377,Mandan,46.83,-100.89,64.99,36,1,9.17,US,1970-01-01 00:00:01.604346809
378,Mount Gambier,-37.83,140.77,64.4,52,95,11.41,AU,1970-01-01 00:00:01.604346958
379,Vila Velha,-20.33,-40.29,73.4,69,40,17.22,BR,1970-01-01 00:00:01.604346959
380,Mazyr,52.05,29.25,42.48,87,66,2.42,BY,1970-01-01 00:00:01.604346960
381,Mayo,38.89,-76.51,50.0,42,1,16.11,US,1970-01-01 00:00:01.604346962
382,Mednogorsk,51.41,57.59,38.28,78,0,4.29,RU,1970-01-01 00:00:01.604346964
383,Calhoun,42.25,-85.0,46.4,36,1,14.99,US,1970-01-01 00:00:01.604346965
384,Bonfim,3.08,-59.95,90.54,50,90,3.15,BR,1970-01-01 00:00:01.604346966
385,Saint Anthony,45.02,-93.22,55.99,34,20,11.41,US,1970-01-01 00:00:01.604346967
386,Labuhan,-6.88,112.21,78.75,83,100,9.01,ID,1970-01-01 00:00:01.604346968
387,Mayumba,-3.43,10.66,76.82,89,62,1.61,GA,1970-01-01 00:00:01.604346969
388,Abnūb,27.27,31.15,77.0,50,0,10.29,EG,1970-01-01 00:00:01.604346970
389,Kabompo,-13.59,24.2,76.48,38,30,7.23,ZM,1970-01-01 00:00:01.604346972
390,Nantucket,41.28,-70.1,44.6,45,75,20.8,US,1970-01-01 00:00:01.604346787
391,Kozhva,65.11,57.05,30.43,97,100,9.22,RU,1970-01-01 00:00:01.604346974
392,Hamilton,39.18,-84.53,50.0,29,1,10.29,US,1970-01-01 00:00:01.604346975
393,Meulaboh,4.14,96.13,77.41,83,100,3.6,ID,1970-01-01 00:00:01.604346977
394,Machico,32.7,-16.77,71.6,64,75,8.05,PT,1970-01-01 00:00:01.604346978
395,Chlórakas,34.8,32.41,64.4,72,20,9.17,CY,1970-01-01 00:00:01.604346979
396,Venado Tuerto,-33.75,-61.97,84.99,36,17,8.01,AR,1970-01-01 00:00:01.604346981
397,Dhidhdhoo,6.88,73.1,82.81,69,20,6.73,MV,1970-01-01 00:00:01.604346982
398,Ust'-Uda,54.17,103.03,24.69,92,100,4.0,RU,1970-01-01 00:00:01.604346983
399,Broken Hill,-31.95,141.43,64.4,45,0,10.29,AU,1970-01-01 00:00:01.604346984
400,Tortolì,39.93,9.66,64.4,82,40,3.36,IT,1970-01-01 00:00:01.604346985
401,Nemuro,43.32,145.57,52.83,88,94,11.92,JP,1970-01-01 00:00:01.604346986
402,Wuwei,37.93,102.64,38.21,63,78,1.23,CN,1970-01-01 00:00:01.604346987
403,Tekeli,44.83,78.82,40.59,54,100,4.32,KZ,1970-01-01 00:00:01.604346988
404,Oranjemund,-28.55,16.43,62.29,88,35,13.67,NA,1970-01-01 00:00:01.604346989
405,Hjørring,57.46,9.98,51.01,91,43,5.99,DK,1970-01-01 00:00:01.604346991
406,Şereflikoçhisar,38.94,33.54,50.34,48,0,4.32,TR,1970-01-01 00:00:01.604346992
407,Lethem,3.38,-59.8,90.55,51,96,1.72,GY,1970-01-01 00:00:01.604346993
408,Udarnyy,54.34,42.86,40.93,89,99,5.32,RU,1970-01-01 00:00:01.604346994
409,Kokopo,-4.35,152.26,78.1,84,0,4.32,PG,1970-01-01 00:00:01.604346995
410,Rock Sound,24.9,-76.2,79.79,81,100,23.17,BS,1970-01-01 00:00:01.604346997
411,Puerto Peñasco,31.32,-113.53,78.01,76,85,3.0,MX,1970-01-01 00:00:01.604346854
412,Žirovnice,49.25,15.19,57.0,99,98,8.16,CZ,1970-01-01 00:00:01.604347000
413,Kalanguy,51.02,116.52,8.42,84,0,2.84,RU,1970-01-01 00:00:01.604347001
414,Mahébourg,-20.41,57.7,71.6,68,75,5.82,MU,1970-01-01 00:00:01.604347002
415,Mama,58.31,112.9,8.42,82,91,6.4,RU,1970-01-01 00:00:01.604347003
416,Presidente Epitácio,-21.76,-52.12,84.4,25,0,9.69,BR,1970-01-01 00:00:01.604347005
417,Cockburn Town,21.46,-71.14,81.9,80,63,12.35,TC,1970-01-01 00:00:01.604346903
418,Ubinskoye,55.31,79.68,31.77,95,100,5.61,RU,1970-01-01 00:00:01.604347008
419,Carlisle,40.2,-77.19,46.99,40,25,7.0,US,1970-01-01 00:00:01.604346884
420,Kingisepp,59.37,28.61,42.71,82,100,14.92,RU,1970-01-01 00:00:01.604347010
421,Samfya,-11.36,29.56,72.97,60,36,8.41,ZM,1970-01-01 00:00:01.604347011
422,Baker City,44.77,-117.83,64.4,23,1,9.17,US,1970-01-01 00:00:01.604347012
423,Konin,52.22,18.25,57.99,97,100,5.01,PL,1970-01-01 00:00:01.604347013
424,Yamada,39.47,141.95,54.25,77,100,1.63,JP,1970-01-01 00:00:01.604347014
425,Atbasar,51.8,68.33,31.77,95,0,3.38,KZ,1970-01-01 00:00:01.604347016
426,Cayenne,4.93,-52.33,78.8,94,20,4.7,GF,1970-01-01 00:00:01.604346905
427,Husavik,66.04,-17.34,41.0,52,90,12.75,IS,1970-01-01 00:00:01.604347018
428,Bāglung,28.27,83.59,59.4,56,0,6.6,NP,1970-01-01 00:00:01.604347019
429,Sept-Îles,50.2,-66.38,39.2,80,100,11.41,CA,1970-01-01 00:00:01.604346989
430,Batī,11.18,40.02,62.56,51,0,4.61,ET,1970-01-01 00:00:01.604347021
431,Raudeberg,61.99,5.14,45.0,92,100,18.77,NO,1970-01-01 00:00:01.604347023
432,Tres Arroyos,-38.37,-60.28,77.07,38,0,11.7,AR,1970-01-01 00:00:01.604347024
433,Kyshtovka,56.55,76.63,30.74,98,100,7.43,RU,1970-01-01 00:00:01.604347025
434,Beloha,-25.17,45.05,69.4,80,1,13.35,MG,1970-01-01 00:00:01.604347026
435,Riberalta,-10.98,-66.1,82.4,83,75,9.17,BO,1970-01-01 00:00:01.604347027
436,Carutapera,-1.2,-46.02,83.23,71,0,7.76,BR,1970-01-01 00:00:01.604347028
437,Salé,34.04,-6.82,63.0,100,20,3.36,MA,1970-01-01 00:00:01.604347029
438,Port Augusta,-32.5,137.77,66.2,45,2,9.17,AU,1970-01-01 00:00:01.604347030
439,Saint-Pierre,-21.34,55.48,73.4,53,90,8.05,RE,1970-01-01 00:00:01.604347031
440,Vestmannaeyjar,63.44,-20.27,43.79,73,97,31.83,IS,1970-01-01 00:00:01.604347033
441,Makakilo City,21.35,-158.09,80.6,69,1,4.7,US,1970-01-01 00:00:01.604347014
442,Aranos,-24.13,19.12,71.02,54,100,9.98,NA,1970-01-01 00:00:01.604347035
443,Kiryat Gat,31.61,34.76,71.01,72,10,1.86,IL,1970-01-01 00:00:01.604347037
444,Mitú,1.2,-70.17,83.23,79,92,3.04,CO,1970-01-01 00:00:01.604347039
445,Fujinomiya,35.22,138.62,55.99,99,100,0.89,JP,1970-01-01 00:00:01.604347040
446,Gamba,-2.65,10.0,74.73,92,33,1.9,GA,1970-01-01 00:00:01.604347042
447,Dingle,11.0,122.67,75.43,88,100,5.12,PH,1970-01-01 00:00:01.604347043
448,Nelson Bay,-32.72,152.15,57.99,93,90,6.93,AU,1970-01-01 00:00:01.604347044
449,Cam Ranh,11.92,109.16,78.8,78,40,4.7,VN,1970-01-01 00:00:01.604347045
450,Kavaratti,10.57,72.64,82.29,69,0,4.74,IN,1970-01-01 00:00:01.604347046
451,Balkhash,46.84,74.98,39.94,63,0,10.8,KZ,1970-01-01 00:00:01.604347047
452,Arinos,-15.92,-46.11,77.45,81,89,4.09,BR,1970-01-01 00:00:01.604347048
453,Starosubkhangulovo,53.1,57.44,34.72,88,0,1.3,RU,1970-01-01 00:00:01.604347050
454,Kalmunai,7.42,81.82,79.03,81,2,6.91,LK,1970-01-01 00:00:01.604347051
455,Leshukonskoye,64.9,45.76,30.06,89,0,10.45,RU,1970-01-01 00:00:01.604347052
456,Grants,35.15,-107.85,60.8,31,1,6.93,US,1970-01-01 00:00:01.604347053
457,Kaeo,-35.1,173.78,68.0,85,100,10.0,NZ,1970-01-01 00:00:01.604347054
458,Mackenzie,55.3,-123.17,42.8,75,90,11.41,CA,1970-01-01 00:00:01.604347055
459,Impfondo,1.64,18.07,73.17,89,100,2.55,CG,1970-01-01 00:00:01.604347056
460,Mandalgovi,45.76,106.27,23.11,78,0,5.97,MN,1970-01-01 00:00:01.604347058
461,Nsanje,-16.92,35.26,76.53,70,9,4.81,MW,1970-01-01 00:00:01.604347059
462,Keuruu,62.27,24.7,46.4,93,90,19.46,FI,1970-01-01 00:00:01.604347060
463,Bikaner,28.02,73.3,71.94,18,0,9.1,IN,1970-01-01 00:00:01.604347061
464,Sinnamary,5.38,-52.95,78.62,86,100,14.56,GF,1970-01-01 00:00:01.604347062
465,Rosario,-32.95,-60.64,84.0,32,0,9.17,AR,1970-01-01 00:00:01.604346950
466,Mogadishu,2.04,45.34,79.41,81,0,9.31,SO,1970-01-01 00:00:01.604347064
467,La Santisima Trinidad,-14.83,-64.9,96.8,28,3,3.0,BO,1970-01-01 00:00:01.604347041
468,Maraã,-1.83,-65.37,91.99,47,62,2.39,BR,1970-01-01 00:00:01.604347067
469,Mbandaka,0.05,18.26,73.33,88,100,2.15,CD,1970-01-01 00:00:01.604347068
470,Port Elizabeth,-33.92,25.57,64.4,88,0,13.87,ZA,1970-01-01 00:00:01.604347069
471,Fairbanks,64.84,-147.72,-9.4,75,90,0.69,US,1970-01-01 00:00:01.604346902
472,Avera,33.19,-82.53,61.0,19,1,6.93,US,1970-01-01 00:00:01.604347071
473,Umiray,15.22,121.41,77.63,81,100,1.79,PH,1970-01-01 00:00:01.604347072
474,Corn Island,12.17,-83.04,81.72,78,100,17.16,NI,1970-01-01 00:00:01.604347073
475,Mazagão,-0.12,-51.29,95.0,53,20,11.41,BR,1970-01-01 00:00:01.604347074
476,North Platte,41.12,-100.77,72.0,21,1,4.7,US,1970-01-01 00:00:01.604347075
477,Khovd,48.01,91.64,26.87,82,85,1.63,MN,1970-01-01 00:00:01.604347077
478,Formosa do Rio Preto,-11.05,-45.19,73.99,81,100,4.99,BR,1970-01-01 00:00:01.604347079
479,Leningradskiy,69.38,178.42,16.16,85,100,3.65,RU,1970-01-01 00:00:01.604347080
480,Leh,34.17,77.58,30.24,68,0,2.48,IN,1970-01-01 00:00:01.604346884
481,Hobyo,5.35,48.53,80.83,79,35,11.3,SO,1970-01-01 00:00:01.604347082
482,Caborca,30.58,-111.1,93.99,19,0,11.21,MX,1970-01-01 00:00:01.604347083
483,Beringovskiy,63.05,179.32,24.76,93,45,4.32,RU,1970-01-01 00:00:01.604347084
484,Necochea,-38.55,-58.74,70.23,52,1,12.84,AR,1970-01-01 00:00:01.604347085
485,Mbaïki,3.87,17.99,71.78,96,100,2.62,CF,1970-01-01 00:00:01.604347088
486,Tutóia,-2.76,-42.27,86.0,70,20,16.11,BR,1970-01-01 00:00:01.604347089
487,Orneta,54.11,20.13,55.04,96,100,10.25,PL,1970-01-01 00:00:01.604347091
488,Ryōtsu-minato,38.08,138.43,58.26,67,84,17.31,JP,1970-01-01 00:00:01.604347092
489,Kargil,34.57,76.1,30.2,69,0,3.24,IN,1970-01-01 00:00:01.604347093
490,Mananjary,-21.22,48.33,68.16,79,11,5.01,MG,1970-01-01 00:00:01.604347094
491,Yakeshi,49.28,120.73,6.31,89,0,10.63,CN,1970-01-01 00:00:01.604347096
492,Brooks,50.58,-111.89,71.6,17,0,9.17,CA,1970-01-01 00:00:01.604347097
493,Canutama,-6.53,-64.38,91.67,50,90,1.59,BR,1970-01-01 00:00:01.604347098
494,Shestakovo,56.49,103.96,26.56,88,100,9.46,RU,1970-01-01 00:00:01.604347099
495,Haines Junction,60.75,-137.51,5.0,65,97,10.29,CA,1970-01-01 00:00:01.604347100
496,Lárdos,36.09,28.02,68.0,59,20,2.24,GR,1970-01-01 00:00:01.604347101
497,Kokoda,-8.88,147.74,75.0,72,55,1.16,PG,1970-01-01 00:00:01.604347102
498,Stepantsevo,56.13,41.7,38.82,92,86,6.2,RU,1970-01-01 00:00:01.604347103
499,Bafoulabé,13.81,-10.83,85.41,23,98,3.02,ML,1970-01-01 00:00:01.604347105
500,Yueyang,29.33,113.09,56.98,56,86,7.34,CN,1970-01-01 00:00:01.604347106
501,Mahon,39.89,4.27,62.6,82,40,6.93,ES,1970-01-01 00:00:01.604347107
502,Lively,46.43,-81.15,32.0,92,90,11.41,CA,1970-01-01 00:00:01.604347109
503,Kangāvar,34.5,47.97,52.57,40,58,0.47,IR,1970-01-01 00:00:01.604347110
504,Fredericton,45.95,-66.67,37.4,93,90,14.99,CA,1970-01-01 00:00:01.604347111
505,Waipawa,-41.41,175.52,52.0,87,100,3.36,NZ,1970-01-01 00:00:01.604347114
506,Lake Havasu City,34.48,-114.32,87.8,9,1,5.82,US,1970-01-01 00:00:01.604347115
507,Tegul'det,57.31,88.17,29.98,98,100,6.67,RU,1970-01-01 00:00:01.604347116
508,Sharkan,57.3,53.87,26.01,88,0,1.99,RU,1970-01-01 00:00:01.604347117
509,Curvelo,-18.76,-44.43,75.43,63,30,6.44,BR,1970-01-01 00:00:01.604347118
510,Kānkon,15.02,74.02,78.8,100,20,2.24,IN,1970-01-01 00:00:01.604347120
511,Kitimat,54.05,-128.65,45.0,95,100,3.31,CA,1970-01-01 00:00:01.604347059
512,San Julián,21.02,-102.17,67.8,28,0,11.83,MX,1970-01-01 00:00:01.604347122
513,Morehead,37.27,-87.18,55.4,13,1,6.93,US,1970-01-01 00:00:01.604347123
514,Tautira,-17.73,-149.15,84.2,70,75,8.05,PF,1970-01-01 00:00:01.604347124
515,Debre Tabor,11.85,38.02,52.88,81,49,1.32,ET,1970-01-01 00:00:01.604347125
516,Nitra,48.31,18.08,55.99,100,90,3.36,SK,1970-01-01 00:00:01.604346943
517,Nevşehir,38.92,34.67,41.0,48,0,3.36,TR,1970-01-01 00:00:01.604347127
518,Bundaberg,-24.85,152.35,68.0,77,90,9.17,AU,1970-01-01 00:00:01.604347128
519,Yatou,37.15,122.38,43.65,62,54,6.51,CN,1970-01-01 00:00:01.604347130
520,Zheleznodorozhnyy,55.75,38.0,43.0,100,90,6.71,RU,1970-01-01 00:00:01.604347131
521,Dédougou,12.47,-3.47,85.1,19,0,6.53,BF,1970-01-01 00:00:01.604347132
522,Taoudenni,22.68,-3.98,82.42,15,100,7.14,ML,1970-01-01 00:00:01.604347133
523,Vostok,46.49,135.88,21.87,98,99,5.06,RU,1970-01-01 00:00:01.604347134
524,Tura,25.52,90.22,70.7,90,36,1.54,IN,1970-01-01 00:00:01.604347135
525,Lac du Bonnet,50.25,-96.06,53.01,68,14,11.41,CA,1970-01-01 00:00:01.604347136
526,Anadyr,64.75,177.48,15.8,85,90,4.47,RU,1970-01-01 00:00:01.604347138
527,Kahului,20.89,-156.47,82.4,65,40,16.11,US,1970-01-01 00:00:01.604347139
528,Hranice,49.55,17.73,54.0,92,100,4.41,CZ,1970-01-01 00:00:01.604347140
529,Buin,-33.73,-70.75,82.4,17,0,9.17,CL,1970-01-01 00:00:01.604347141
530,Coyhaique,-45.58,-72.07,64.4,48,0,8.05,CL,1970-01-01 00:00:01.604347142
531,Gazli,40.13,63.45,51.28,37,0,11.1,UZ,1970-01-01 00:00:01.604347143
532,Erenhot,43.65,111.98,24.22,76,0,4.65,CN,1970-01-01 00:00:01.604347144
533,Mukhen,48.1,136.1,29.08,92,38,5.46,RU,1970-01-01 00:00:01.604347146
534,Mount Isa,-20.73,139.5,75.2,19,0,6.93,AU,1970-01-01 00:00:01.604347147
535,Puerto Carreño,6.19,-67.49,87.94,60,69,5.37,CO,1970-01-01 00:00:01.604347148
536,Margate,51.38,1.39,51.01,70,0,3.0,GB,1970-01-01 00:00:01.604347149
537,Tazmalt,36.39,4.4,59.0,77,0,4.7,DZ,1970-01-01 00:00:01.604346894
538,Praia,14.92,-23.51,84.2,42,0,9.17,CV,1970-01-01 00:00:01.604347151
539,Worland,44.02,-107.96,63.0,27,1,4.7,US,1970-01-01 00:00:01.604346944
540,Kralendijk,12.15,-68.27,87.8,70,75,10.29,BQ,1970-01-01 00:00:01.604347153
541,Bandarbeyla,9.49,50.81,78.12,81,38,21.34,SO,1970-01-01 00:00:01.604347154
542,Kanniyākumāri,8.08,77.57,80.17,79,2,10.38,IN,1970-01-01 00:00:01.604347156
543,Price,39.6,-110.81,60.8,19,1,3.36,US,1970-01-01 00:00:01.604347157
544,Ballarat,-37.57,143.85,58.93,66,80,6.31,AU,1970-01-01 00:00:01.604347158
545,Yar-Sale,66.83,70.83,17.89,93,14,8.81,RU,1970-01-01 00:00:01.604347159
546,Flinders,-34.58,150.86,55.0,89,14,1.01,AU,1970-01-01 00:00:01.604347160
547,Berlevåg,70.86,29.09,35.6,85,75,26.4,NO,1970-01-01 00:00:01.604347161
548,Isla Mujeres,21.23,-86.73,80.6,83,90,11.41,MX,1970-01-01 00:00:01.604347162
549,Shawnee,39.05,-95.77,69.01,29,1,13.87,US,1970-01-01 00:00:01.604347163
550,Solntsevo,51.42,36.75,48.2,93,90,6.71,RU,1970-01-01 00:00:01.604347165
551,Togur,58.36,82.83,30.61,98,100,7.83,RU,1970-01-01 00:00:01.604347166
552,Wanlaweyn,2.62,44.89,77.68,84,45,8.79,SO,1970-01-01 00:00:01.604347167
553,Takoradze,4.88,-1.76,79.12,85,100,5.57,GH,1970-01-01 00:00:01.604347168
554,Iroquois Falls,48.77,-80.68,26.6,92,90,6.93,CA,1970-01-01 00:00:01.604347169
555,Severomorsk,69.07,33.42,33.8,86,75,15.66,RU,1970-01-01 00:00:01.604347170
556,Riachos,39.44,-8.51,62.01,99,100,8.01,PT,1970-01-01 00:00:01.604347171
557,Guerrero Negro,27.98,-114.06,78.94,48,0,13.94,MX,1970-01-01 00:00:01.604347172
558,Pandan,14.05,124.17,79.2,84,100,5.12,PH,1970-01-01 00:00:01.604347174
559,Owo,7.2,5.59,74.32,89,100,2.73,NG,1970-01-01 00:00:01.604347176
560,Ucluelet,48.93,-125.55,54.0,76,90,9.17,CA,1970-01-01 00:00:01.604346889
561,Rasrā,25.85,83.85,68.97,32,0,6.82,IN,1970-01-01 00:00:01.604347178
562,Tivaouane,14.95,-16.81,86.0,33,0,9.17,SN,1970-01-01 00:00:01.604347179
563,Yugawara,35.15,139.07,57.99,95,100,2.86,JP,1970-01-01 00:00:01.604347180
564,Baykit,61.67,96.37,22.64,94,96,7.4,RU,1970-01-01 00:00:01.604347182
565,Lagoa,39.05,-27.98,62.1,64,100,13.85,PT,1970-01-01 00:00:01.604347183
566,Tubualá,9.52,-79.03,78.8,88,75,16.11,PA,1970-01-01 00:00:01.604347184
567,Bayburt,40.26,40.23,44.51,81,84,3.13,TR,1970-01-01 00:00:01.604347186
